[{"business_id": "POuzQLJuPWx0i-dUNdRsWQ", "name": "International Galleries", "address": "118 Lincoln Square", "city": "Urbana", "state": "IL", "postal_code": "61801", "latitude": 40.1112398, "longitude": -88.2072019, "stars": 4.5, "review_count": 8, "is_open": 1, "attributes": {"GoodForKids": "True", "RestaurantsPriceRange2": "2", "BusinessAcceptsCreditCards": "True", "BikeParking": "True", "BusinessParking": "{'garage': False, 'street': False, 'validated': False, 'lot': True, 'valet': False}", "ByAppointmentOnly": "False"}, "categories": "Art Galleries, Framing, Shopping, Jewelry, Arts & Crafts, Arts & Entertainment", "hours": {"Monday": "10:0-18:0", "Tuesday": "10:0-18:0", "Wednesday": "10:0-18:0", "Thursday": "10:0-18:0", "Friday": "10:0-18:0", "Saturday": "10:0-18:0"}}, {"business_id": "d8_rOOEQ83U-ennjzo-8ww", "name": "Wyldewood Cellars", "address": "218 E Lincoln St", "city": "Saint Joseph", "state": "IL", "postal_code": "61873", "latitude": 40.1115097467, "longitude": -88.041590051, "stars": 4.5, "review_count": 5, "is_open": 1, "attributes": {"BusinessAcceptsCreditCards": "True", "GoodForKids": "False", "RestaurantsPriceRange2": "1", "ByAppointmentOnly": "False", "BusinessParking": "{'garage': False, 'street': True, 'validated': False, 'lot': False, 'valet': False}", "BikeParking": "True", "RestaurantsTakeOut": "False", "WheelchairAccessible": "True", "WiFi": "u'free'", "Caters": "False", "HappyHour": "False"}, "categories": "Wineries, Food, Arts & Entertainment", "hours": {"Monday": "10:0-18:0", "Tuesday": "10:0-18:0", "Wednesday": "10:0-18:0", "Thursday": "10:0-18:0", "Friday": "10:0-18:0", "Saturday": "10:0-18:0", "Sunday": "12:0-17:0"}}, {"business_id": "sfn4UtTZOjGo0hIWBa48uw", "name": "The Art Party Studio", "address": "111 S Walnut St", "city": "Champaign", "state": "IL", "postal_code": "61820", "latitude": 40.1155929, "longitude": -88.2429788, "stars": 3.5, "review_count": 5, "is_open": 0, "attributes": {"BusinessParking": "{'garage': False, 'street': False, 'validated': False, 'lot': False, 'valet': False}", "ByAppointmentOnly": "True", "GoodForKids": "True", "BusinessAcceptsCreditCards": "True", "RestaurantsPriceRange2": "2"}, "categories": "Event Planning & Services, Venues & Event Spaces, Arts & Entertainment, Art Galleries, Shopping", "hours": {"Tuesday": "18:30-21:30", "Wednesday": "18:30-21:30", "Thursday": "18:30-21:30", "Friday": "18:30-21:30", "Saturday": "18:30-21:30"}}, {"business_id": "dVBp-ayxdvwG95BYfqKwDw", "name": "Art Mart", "address": "127 Lincoln Sq", "city": "Urbana", "state": "IL", "postal_code": "61801", "latitude": 40.1112662, "longitude": -88.2071884, "stars": 4.5, "review_count": 16, "is_open": 0, "attributes": {"BusinessParking": "{'garage': False, 'street': False, 'validated': False, 'lot': True, 'valet': False}", "BusinessAcceptsCreditCards": "True", "RestaurantsPriceRange2": "2", "BikeParking": "True"}, "categories": "Kitchen & Bath, Home & Garden, Art Supplies, Arts & Crafts, Food, Art Galleries, Shopping, Specialty Food, Arts & Entertainment", "hours": {"Monday": "9:0-18:0", "Tuesday": "9:0-18:0", "Wednesday": "9:0-18:0", "Thursday": "9:0-18:0", "Friday": "9:0-18:0", "Saturday": "10:0-17:0", "Sunday": "12:0-17:0"}}, {"business_id": "Gzs4Gjd2MI72mmmWKwfXlw", "name": "Brainstorm Escapes", "address": "61 E University Ave", "city": "Champaign", "state": "IL", "postal_code": "61820", "latitude": 40.1160665, "longitude": -88.239691, "stars": 5, "review_count": 17, "is_open": 1, "attributes": {"BusinessAcceptsCreditCards": "True", "BikeParking": "True", "BusinessParking": "{'garage': False, 'street': True, 'validated': False, 'lot': True, 'valet': False}", "GoodForKids": "True", "ByAppointmentOnly": "True", "WheelchairAccessible": "True"}, "categories": "Shopping, Arts & Entertainment, Books, Mags, Music & Video, Escape Games, Video Game Stores, Active Life", "hours": {"Monday": "15:0-20:0", "Tuesday": "15:0-20:0", "Wednesday": "15:0-20:0", "Thursday": "15:0-20:0", "Friday": "15:0-21:30", "Saturday": "11:0-21:30", "Sunday": "12:30-19:0"}}, {"business_id": "oJJz8E82bvu202ZfrhKg7A", "name": "Sipyard", "address": "204 W Main St", "city": "Urbana", "state": "IL", "postal_code": "61801", "latitude": 40.1125736143, "longitude": -88.2091920933, "stars": 4.5, "review_count": 18, "is_open": 1, "attributes": {"CoatCheck": "False", "WheelchairAccessible": "True", "Music": "{'dj': False, 'background_music': False, 'no_music': False, 'jukebox': False, 'live': False, 'video': False, 'karaoke': False}", "OutdoorSeating": "True", "DogsAllowed": "True", "Alcohol": "u'beer_and_wine'", "BusinessParking": "{'garage': False, 'street': True, 'validated': False, 'lot': False, 'valet': False}", "BusinessAcceptsBitcoin": "False", "RestaurantsPriceRange2": "2", "HasTV": "False", "BusinessAcceptsCreditCards": "True", "GoodForDancing": "False", "BikeParking": "True", "RestaurantsReservations": "True", "WiFi": "u'free'", "Smoking": "u'yes'", "RestaurantsGoodForGroups": "True", "NoiseLevel": "u'average'", "BestNights": "{'monday': False, 'tuesday': False, 'friday': True, 'wednesday': False, 'thursday': False, 'sunday': False, 'saturday': True}", "HappyHour": "False", "Ambience": "{'touristy': False, 'hipster': True, 'romantic': False, 'divey': False, 'intimate': False, 'trendy': False, 'upscale': False, 'classy': False, 'casual': False}"}, "categories": "Beer Gardens, Shopping, Music Venues, Art Galleries, Arts & Entertainment, Nightlife, Bars", "hours": {"Monday": "16:30-21:0", "Tuesday": "16:30-21:0", "Wednesday": "16:30-22:0", "Thursday": "16:30-23:0", "Friday": "16:30-0:0", "Saturday": "15:0-0:0", "Sunday": "15:0-21:0"}}, {"business_id": "3P1dBNauEwkToURbq_I0Dw", "name": "Old Orchard Lanes & Links", "address": "901 N Dunlap Ave", "city": "Savoy", "state": "IL", "postal_code": "61874", "latitude": 40.0652239, "longitude": -88.2507519, "stars": 3.5, "review_count": 24, "is_open": 1, "attributes": {"BusinessAcceptsCreditCards": "True", "OutdoorSeating": "True", "Music": "{'dj': False, 'background_music': False, 'no_music': False, 'jukebox': True, 'live': False, 'video': False, 'karaoke': False}", "BusinessParking": "{'garage': False, 'street': False, 'validated': False, 'lot': True, 'valet': False}", "Ambience": "{'romantic': False, 'intimate': False, 'classy': False, 'hipster': False, 'divey': False, 'touristy': False, 'trendy': False, 'upscale': False, 'casual': False}", "Alcohol": "u'full_bar'", "RestaurantsPriceRange2": "2", "WiFi": "u'free'", "NoiseLevel": "u'very_loud'", "HasTV": "True", "GoodForKids": "True", "RestaurantsGoodForGroups": "True", "RestaurantsDelivery": "False", "RestaurantsTakeOut": "False", "WheelchairAccessible": "True", "RestaurantsReservations": "True"}, "categories": "Party & Event Planning, Mini Golf, Bars, Arcades, Lounges, Active Life, Arts & Entertainment, Food, Nightlife, Event Planning & Services, Recreation Centers, Restaurants, Party Supplies, Bowling, Amusement Parks, Wedding Planning", "hours": {"Monday": "10:0-22:30", "Tuesday": "10:0-22:30", "Wednesday": "10:0-22:30", "Thursday": "10:0-22:30", "Friday": "10:0-0:0", "Saturday": "10:0-0:0", "Sunday": "11:0-22:0"}}, {"business_id": "Kfxm-fFJ3eY9DoTb6K2jXw", "name": "The William R and Clarice V Spurlock Museum", "address": "600 S Gregory St", "city": "Urbana", "state": "IL", "postal_code": "61801", "latitude": 40.1076149, "longitude": -88.2207769, "stars": 3.5, "review_count": 9, "is_open": 1, "attributes": {"GoodForKids": "True", "WiFi": "u'free'"}, "categories": "Arts & Entertainment, Museums", "hours": {"Tuesday": "12:0-17:0", "Wednesday": "9:0-17:0", "Thursday": "9:0-17:0", "Friday": "9:0-17:0", "Saturday": "10:0-16:0", "Sunday": "12:0-16:0"}}, {"business_id": "GaldZd5OD9Elm46xwzyF8w", "name": "Revolt Tattoo Studio", "address": "505 S Neil St, Ste 10", "city": "Champaign", "state": "IL", "postal_code": "61820", "latitude": 40.1111456, "longitude": -88.2441689, "stars": 5, "review_count": 3, "is_open": 0, "attributes": {"BusinessParking": "{'garage': False, 'street': False, 'validated': False, 'lot': True, 'valet': False}", "BusinessAcceptsCreditCards": "True", "BusinessAcceptsBitcoin": "False", "RestaurantsPriceRange2": "2", "BikeParking": "True", "ByAppointmentOnly": "True"}, "categories": "Tattoo, Piercing, Beauty & Spas, Arts & Entertainment", "hours": {"Tuesday": "11:0-19:0", "Wednesday": "11:0-19:0", "Thursday": "11:0-19:0", "Friday": "11:0-19:0", "Saturday": "11:0-19:0"}}, {"business_id": "XB9NX-_MsNOwyLw5PrMkmg", "name": "High Caliber Training Center & Indoor Range", "address": "1414 Triumph Dr", "city": "Urbana", "state": "IL", "postal_code": "61802", "latitude": 40.148924, "longitude": -88.188677, "stars": 3.5, "review_count": 9, "is_open": 1, "attributes": {"GoodForKids": "True", "ByAppointmentOnly": "False", "BusinessAcceptsCreditCards": "True", "BusinessParking": "{'garage': False, 'street': False, 'validated': False, 'lot': True, 'valet': False}", "RestaurantsPriceRange2": "2", "WheelchairAccessible": "True", "BikeParking": "False"}, "categories": "Shopping, Sporting Goods, Active Life, Guns & Ammo, Gun/Rifle Ranges, Arts & Entertainment", "hours": {"Monday": "0:0-0:0", "Tuesday": "8:0-17:0", "Wednesday": "11:0-20:0", "Thursday": "8:0-17:0", "Friday": "11:0-20:0", "Saturday": "8:0-20:0", "Sunday": "12:0-18:0"}}, {"business_id": "hH2N-9cGQBv8heu7uiqekQ", "name": "Memphis On Main", "address": "55 E Main St", "city": "Champaign", "state": "IL", "postal_code": "61820", "latitude": 40.117703, "longitude": -88.240775, "stars": 3.5, "review_count": 20, "is_open": 0, "attributes": {"RestaurantsGoodForGroups": "True", "BusinessAcceptsCreditCards": "True", "OutdoorSeating": "True", "RestaurantsPriceRange2": "1", "Alcohol": "u'full_bar'", "BusinessParking": "{'garage': False, 'street': True, 'validated': False, 'lot': False, 'valet': False}", "Ambience": "{'touristy': False, 'hipster': False, 'romantic': False, 'divey': True, 'intimate': False, 'trendy': False, 'upscale': False, 'classy': False, 'casual': True}", "HasTV": "True", "GoodForKids": "False", "BikeParking": "False", "NoiseLevel": "u'loud'", "RestaurantsReservations": "False"}, "categories": "Karaoke, Bars, Music Venues, Nightlife, Arts & Entertainment", "hours": {"Monday": "16:0-2:0", "Tuesday": "16:0-2:0", "Wednesday": "16:0-2:0", "Thursday": "16:0-2:0", "Friday": "16:0-2:0", "Saturday": "16:0-2:0", "Sunday": "16:0-2:0"}}, {"business_id": "0a9RDYet9uHLzban79z-Vw", "name": "Urbana Sweetcorn Festival", "address": "300 S Broadway Ave", "city": "Urbana", "state": "IL", "postal_code": "61801", "latitude": 40.1105426, "longitude": -88.2066616, "stars": 2, "review_count": 4, "is_open": 1, "attributes": {"GoodForKids": "True"}, "categories": "Festivals, Local Flavor, Arts & Entertainment", "hours": null}, {"business_id": "M8G8S2takaE_NOVutGzEkg", "name": "Alto Vineyards", "address": "4210 N Duncan Rd", "city": "Champaign", "state": "IL", "postal_code": "61822", "latitude": 40.1672104, "longitude": -88.2951619, "stars": 4, "review_count": 18, "is_open": 1, "attributes": {"OutdoorSeating": "True", "HasTV": "False", "Alcohol": "u'beer_and_wine'", "BusinessParking": "{'garage': False, 'street': False, 'validated': False, 'lot': True, 'valet': False}", "RestaurantsGoodForGroups": "True", "RestaurantsPriceRange2": "2", "ByAppointmentOnly": "False", "BusinessAcceptsCreditCards": "True", "RestaurantsTakeOut": "False", "GoodForKids": "False", "Caters": "False", "BikeParking": "True"}, "categories": "Venues & Event Spaces, Event Planning & Services, Arts & Entertainment, Jazz & Blues, Wineries, Nightlife, Food, Beer, Wine & Spirits", "hours": {"Tuesday": "12:0-18:0", "Wednesday": "12:0-18:0", "Thursday": "12:0-18:0", "Friday": "12:0-19:0", "Saturday": "12:0-19:0", "Sunday": "12:0-17:0"}}, {"business_id": "Lwb6bG1Qu3BbW7FJj5suLw", "name": "Champaign-Urbana Adventures in Time & Space", "address": "302 N Broadway Ave, Ste 100", "city": "Urbana", "state": "IL", "postal_code": "61801", "latitude": 40.115148, "longitude": -88.206215, "stars": 5, "review_count": 47, "is_open": 1, "attributes": {"BikeParking": "True", "BusinessParking": "{'garage': True, 'street': False, 'validated': False, 'lot': False, 'valet': False}", "ByAppointmentOnly": "True", "BusinessAcceptsCreditCards": "True", "GoodForKids": "True"}, "categories": "Arts & Entertainment, Escape Games, Active Life, Nightlife", "hours": {"Monday": "9:0-22:0", "Tuesday": "9:0-18:0", "Wednesday": "9:0-22:0", "Thursday": "9:0-22:0", "Friday": "9:0-22:0", "Saturday": "10:0-0:0", "Sunday": "11:0-22:0"}}, {"business_id": "uPknXsvEOcrN5xk5fsVLPQ", "name": "Promenade Showcase and Gift Shop", "address": "500 S Goodwin Ave", "city": "Urbana", "state": "IL", "postal_code": "61801", "latitude": 40.108013, "longitude": -88.222747, "stars": 4, "review_count": 3, "is_open": 1, "attributes": {"BusinessParking": "{'garage': True, 'street': True, 'validated': False, 'lot': False, 'valet': False}", "WheelchairAccessible": "True", "BusinessAcceptsCreditCards": "True", "BikeParking": "True", "DogsAllowed": "False", "BusinessAcceptsBitcoin": "False", "WiFi": "u'free'"}, "categories": "Event Planning & Services, Flowers & Gifts, Shopping, Arts & Crafts, Museums, Venues & Event Spaces, Gift Shops, Arts & Entertainment, Cards & Stationery", "hours": {"Monday": "14:0-18:0", "Tuesday": "14:0-18:0", "Wednesday": "14:0-18:0", "Thursday": "14:0-18:0", "Friday": "14:0-18:0", "Saturday": "14:0-18:0", "Sunday": "14:0-18:0"}}, {"business_id": "FS1nruhbzkmKp0b2G1OnnQ", "name": "Hillel Foundation", "address": "503 E John St", "city": "Champaign", "state": "IL", "postal_code": "61820", "latitude": 40.1087243, "longitude": -88.2315754, "stars": 5, "review_count": 3, "is_open": 1, "attributes": null, "categories": "Arts & Entertainment, Event Planning & Services, Cultural Center, Religious Organizations, Venues & Event Spaces", "hours": {"Monday": "10:0-22:0", "Tuesday": "10:0-22:0", "Wednesday": "10:0-22:0", "Thursday": "10:0-22:0", "Friday": "10:0-22:0", "Saturday": "9:0-21:0", "Sunday": "10:0-22:0"}}, {"business_id": "tKcagQ6JNkMtayvBVHwY9w", "name": "Japan House", "address": "2000 S Lincoln Ave", "city": "Urbana", "state": "IL", "postal_code": "61801", "latitude": 40.0927651, "longitude": -88.2178875, "stars": 4.5, "review_count": 9, "is_open": 1, "attributes": {"GoodForKids": "True"}, "categories": "Specialty Schools, Art Schools, Education, Arts & Entertainment, Educational Services, Botanical Gardens", "hours": null}, {"business_id": "B2hnhxgCO-a919tfem6yIQ", "name": "Illini Union", "address": "1401 W Green St", "city": "Urbana", "state": "IL", "postal_code": "61801", "latitude": 40.1097607448, "longitude": -88.2272078138, "stars": 4.5, "review_count": 15, "is_open": 1, "attributes": {"RestaurantsPriceRange2": "1", "BusinessAcceptsCreditCards": "True", "GoodForKids": "True", "BikeParking": "True", "BusinessParking": "{'garage': False, 'street': False, 'validated': False, 'lot': False, 'valet': False}"}, "categories": "Bookstores, Arts & Entertainment, Education, Shopping, Books, Mags, Music & Video, Active Life, Bowling, Colleges & Universities, Social Clubs", "hours": null}, {"business_id": "awtm91UKAN-ukYSFU7IMcA", "name": "Hubers West End Store", "address": "1312 West Church St", "city": "Champaign", "state": "IL", "postal_code": "61821", "latitude": 40.1185216, "longitude": -88.2685325, "stars": 4, "review_count": 11, "is_open": 1, "attributes": {"RestaurantsPriceRange2": "1", "NoiseLevel": "u'average'", "BusinessAcceptsCreditCards": "True", "Music": "{'dj': False, 'background_music': False, 'no_music': False, 'jukebox': False, 'live': True, 'video': False, 'karaoke': False}", "OutdoorSeating": "True", "Alcohol": "u'full_bar'", "HasTV": "True", "BusinessParking": "{'garage': False, 'street': False, 'validated': False, 'lot': False, 'valet': False}", "BikeParking": "False", "RestaurantsGoodForGroups": "True", "Ambience": "{'romantic': False, 'intimate': False, 'touristy': False, 'hipster': False, 'divey': False, 'classy': False, 'trendy': False, 'upscale': False, 'casual': False}"}, "categories": "Music Venues, Arts & Entertainment, Bars, Dive Bars, Sports Bars, Nightlife", "hours": {"Monday": "10:30-23:0", "Tuesday": "10:30-23:0", "Wednesday": "10:30-23:0", "Thursday": "10:30-23:0", "Friday": "10:30-23:0", "Saturday": "10:30-23:0", "Sunday": "10:30-23:0"}}, {"business_id": "XwhDBNra9t3lgk1JdYlUOQ", "name": "Hardy's Reindeer Ranch", "address": "1356 County Rd 2900 N", "city": "Rantoul", "state": "IL", "postal_code": "61866", "latitude": 40.2979613, "longitude": -88.2026088, "stars": 4, "review_count": 15, "is_open": 1, "attributes": {"GoodForKids": "True"}, "categories": "Tours, Farms, Ranches, Arts & Entertainment, Hotels & Travel, Shopping, Gift Shops, Christmas Trees, Home & Garden, Flowers & Gifts", "hours": {"Monday": "0:0-0:0", "Tuesday": "10:0-14:0", "Wednesday": "10:0-19:0", "Thursday": "10:0-19:0", "Friday": "10:0-19:0", "Saturday": "10:0-17:0", "Sunday": "10:0-19:0"}}, {"business_id": "SJU__uFMeCmpVQuec3k8xw", "name": "AMC Champaign 13", "address": "910 Meijer Dr", "city": "Champaign", "state": "IL", "postal_code": "61822", "latitude": 40.1475458, "longitude": -88.2602734, "stars": 3.5, "review_count": 34, "is_open": 1, "attributes": {"GoodForKids": "True"}, "categories": "Arts & Entertainment, Cinema", "hours": {"Monday": "11:0-23:0", "Tuesday": "11:0-23:0", "Wednesday": "11:0-23:0", "Thursday": "11:0-23:0", "Friday": "11:0-23:0", "Saturday": "11:0-23:0", "Sunday": "11:0-23:0"}}, {"business_id": "Fp3rVpHewjl8zjMwHIQwag", "name": "Vintage Karma", "address": "110 W Sale St", "city": "Tuscola", "state": "IL", "postal_code": "61953", "latitude": 39.8000294, "longitude": -88.2882753, "stars": 5, "review_count": 7, "is_open": 1, "attributes": {"RestaurantsPriceRange2": "2", "BusinessParking": "{'garage': False, 'street': True, 'validated': False, 'lot': False, 'valet': False}", "ByAppointmentOnly": "True", "GoodForKids": "False", "BusinessAcceptsCreditCards": "True", "BikeParking": "True"}, "categories": "Antiques, Arts & Entertainment, Art Galleries, Beauty & Spas, Arts & Crafts, Piercing, Shopping, Tattoo", "hours": {"Tuesday": "12:0-19:0", "Wednesday": "12:0-19:0", "Thursday": "12:0-19:0", "Friday": "12:0-19:0", "Saturday": "12:0-19:0"}}, {"business_id": "WDTzX_C2CbAwxBbqm-od6g", "name": "Cowboy Monkey", "address": "6 E Taylor St", "city": "Champaign", "state": "IL", "postal_code": "61820", "latitude": 40.1175386, "longitude": -88.243133, "stars": 3, "review_count": 50, "is_open": 1, "attributes": {"RestaurantsReservations": "False", "BusinessAcceptsCreditCards": "True", "Ambience": "{'touristy': False, 'hipster': False, 'romantic': False, 'divey': False, 'intimate': False, 'trendy': False, 'upscale': False, 'classy': False, 'casual': True}", "WiFi": "u'free'", "RestaurantsGoodForGroups": "True", "Alcohol": "u'full_bar'", "RestaurantsAttire": "'casual'", "BYOBCorkage": "'yes_free'", "BikeParking": "True", "RestaurantsDelivery": "False", "OutdoorSeating": "True", "Corkage": "False", "BusinessParking": "{'garage': False, 'street': True, 'validated': False, 'lot': True, 'valet': False}", "RestaurantsPriceRange2": "2", "NoiseLevel": "u'very_loud'", "HasTV": "True", "Music": "{'dj': False, 'background_music': False, 'no_music': False, 'jukebox': False, 'live': True, 'video': False, 'karaoke': False}", "RestaurantsTakeOut": "True", "GoodForKids": "False", "WheelchairAccessible": "True", "Smoking": "u'outdoor'"}, "categories": "Arts & Entertainment, Pubs, Music Venues, Nightlife, Bars, Restaurants", "hours": {"Tuesday": "20:0-2:0", "Wednesday": "19:30-2:0", "Thursday": "21:0-2:0", "Friday": "21:0-2:0", "Saturday": "21:0-2:0"}}, {"business_id": "1jt4SuIHAtXD9aPnPqZ3BQ", "name": "The Art Theater", "address": "126 W Church", "city": "Champaign", "state": "IL", "postal_code": "61820", "latitude": 40.118535, "longitude": -88.244666, "stars": 5, "review_count": 36, "is_open": 1, "attributes": {"GoodForKids": "True"}, "categories": "Cinema, Arts & Entertainment", "hours": null}, {"business_id": "DNBKTu7qoN_18JIybyIVPw", "name": "William M Staerkel Planetarium", "address": "2400 W Bradley Ave", "city": "Champaign", "state": "IL", "postal_code": "61821", "latitude": 40.132309, "longitude": -88.291262, "stars": 4, "review_count": 3, "is_open": 1, "attributes": {"GoodForKids": "True"}, "categories": "Planetarium, Nightlife, Tours, Hotels & Travel, Arts & Entertainment, Music Venues, Museums", "hours": {"Friday": "19:0-21:0", "Saturday": "19:0-21:0"}}, {"business_id": "skc8HRfL5Iwjfg4BJg9roA", "name": "Enchantment Alley", "address": "123 W Main, Ste 102", "city": "Urbana", "state": "IL", "postal_code": "61801", "latitude": 40.112197, "longitude": -88.208327, "stars": 3.5, "review_count": 3, "is_open": 1, "attributes": {"BusinessParking": "{'garage': True, 'street': True, 'validated': False, 'lot': False, 'valet': False}", "BusinessAcceptsBitcoin": "False", "ByAppointmentOnly": "False", "DogsAllowed": "False", "BusinessAcceptsCreditCards": "True", "BikeParking": "True", "RestaurantsPriceRange2": "3", "WheelchairAccessible": "True"}, "categories": "Hobby Shops, Arts & Entertainment, Shopping, Event Planning & Services, Customized Merchandise, Arts & Crafts, Spiritual Shop, Costumes, Tabletop Games", "hours": {"Monday": "0:0-0:0", "Tuesday": "11:0-21:0", "Wednesday": "11:0-21:0", "Thursday": "11:0-21:0", "Friday": "11:0-21:0", "Saturday": "11:0-21:0", "Sunday": "11:0-21:0"}}, {"business_id": "K0XC6XMa7wKqQ2dzwkeQZw", "name": "Virginia Theatre", "address": "203 W Park Ave", "city": "Champaign", "state": "IL", "postal_code": "61820", "latitude": 40.1170182, "longitude": -88.2455847, "stars": 4.5, "review_count": 13, "is_open": 1, "attributes": {"BusinessAcceptsCreditCards": "True", "GoodForKids": "True"}, "categories": "Event Planning & Services, Venues & Event Spaces, Performing Arts, Arts & Entertainment, Nightlife, Music Venues, Cinema", "hours": {"Monday": "10:0-17:30", "Tuesday": "10:0-17:30", "Wednesday": "10:0-17:30", "Thursday": "10:0-17:30", "Friday": "10:0-17:30"}}, {"business_id": "A_eABcl0LTts73RNo2Np2Q", "name": "Krannert Center for the Performing Arts", "address": "500 S Goodwin Ave", "city": "Urbana", "state": "IL", "postal_code": "61801", "latitude": 40.108013, "longitude": -88.222747, "stars": 5, "review_count": 26, "is_open": 1, "attributes": {"BikeParking": "True", "GoodForKids": "True", "RestaurantsAttire": "'dressy'", "RestaurantsTakeOut": "False", "Caters": "False", "NoiseLevel": "'average'", "Ambience": "{'touristy': False, 'hipster': False, 'romantic': False, 'divey': False, 'intimate': False, 'trendy': False, 'upscale': False, 'classy': False, 'casual': False}", "BestNights": "{'monday': False, 'tuesday': False, 'friday': False, 'wednesday': False, 'thursday': False, 'sunday': False, 'saturday': False}", "OutdoorSeating": "False", "RestaurantsPriceRange2": "2", "RestaurantsGoodForGroups": "True", "RestaurantsDelivery": "False", "RestaurantsReservations": "True", "HappyHour": "False", "Alcohol": "'beer_and_wine'", "Music": "{'dj': False, 'background_music': False, 'no_music': False, 'jukebox': False, 'live': True, 'video': False, 'karaoke': False}", "HasTV": "True", "BusinessAcceptsCreditCards": "True", "ByAppointmentOnly": "True", "BusinessParking": "{'garage': True, 'street': False, 'validated': False, 'lot': False, 'valet': False}"}, "categories": "Health & Medical, Ticket Sales, Music Venues, Restaurants, Counseling & Mental Health, Venues & Event Spaces, Nightlife, Performing Arts, Event Planning & Services, Arts & Entertainment, Wedding Planning", "hours": {"Monday": "10:0-18:0", "Tuesday": "10:0-18:0", "Wednesday": "10:0-18:0", "Thursday": "10:0-18:0", "Friday": "10:0-18:0", "Saturday": "10:0-18:0", "Sunday": "10:0-18:0"}}, {"business_id": "400LXhwJuQwYKLknZ3fgJQ", "name": "The Accord", "address": "51 E Main St", "city": "Champaign", "state": "IL", "postal_code": "61820", "latitude": 40.117801, "longitude": -88.2408974, "stars": 3.5, "review_count": 16, "is_open": 0, "attributes": {"NoiseLevel": "u'very_loud'", "GoodForKids": "False", "RestaurantsGoodForGroups": "True", "Ambience": "{'romantic': False, 'intimate': False, 'classy': False, 'hipster': False, 'divey': True, 'touristy': False, 'trendy': False, 'upscale': False, 'casual': False}", "Alcohol": "u'full_bar'", "OutdoorSeating": "False", "BusinessAcceptsCreditCards": "True", "BusinessParking": "{'garage': False, 'street': True, 'validated': False, 'lot': False, 'valet': False}", "BikeParking": "True", "HasTV": "True", "RestaurantsPriceRange2": "2"}, "categories": "Arts & Entertainment, Dance Clubs, Music Venues, Nightlife, Venues & Event Spaces, Event Planning & Services", "hours": {"Tuesday": "18:0-22:0", "Wednesday": "18:0-2:0", "Thursday": "18:0-2:0", "Friday": "18:0-2:0", "Saturday": "18:0-2:0"}}, {"business_id": "7PH-QDcIpI9-L_LISkLkjg", "name": "Art In Motion Dance Studio", "address": "4010 Colleen Dr", "city": "Champaign", "state": "IL", "postal_code": "61822", "latitude": 40.1092057, "longitude": -88.3111364, "stars": 4.5, "review_count": 3, "is_open": 1, "attributes": {"GoodForKids": "True", "ByAppointmentOnly": "False", "BusinessAcceptsCreditCards": "True", "BusinessParking": "{'garage': False, 'street': False, 'validated': False, 'lot': False, 'valet': False}"}, "categories": "Education, Active Life, Dance Studios, Dance Schools, Fitness & Instruction, Arts & Entertainment, Performing Arts, Specialty Schools", "hours": {"Monday": "12:0-20:0", "Tuesday": "12:0-20:0", "Wednesday": "12:0-20:0", "Thursday": "12:0-20:0"}}, {"business_id": "zGQNQUpKLnjFsgXg3GSQqQ", "name": "Regent Ballroom & Banquet Center", "address": "1406 Regency Dr W", "city": "Savoy", "state": "IL", "postal_code": "61874", "latitude": 40.072363, "longitude": -88.25474, "stars": 4.5, "review_count": 6, "is_open": 1, "attributes": {"BusinessAcceptsCreditCards": "True"}, "categories": "Specialty Schools, Dance Schools, Adult Education, Dance Clubs, Education, Venues & Event Spaces, Nightlife, Arts & Entertainment, Shopping, Wedding Planning, Party Supplies, Party & Event Planning, Event Planning & Services, Performing Arts, Bridal", "hours": {"Monday": "13:0-17:0", "Tuesday": "13:0-17:0", "Wednesday": "13:0-17:0", "Thursday": "13:0-17:0", "Friday": "13:0-17:0"}}, {"business_id": "PyUzLJdol6u2sSxEmJK5Cg", "name": "Neil St Blues", "address": "301 N Neil St, Ste 106", "city": "Champaign", "state": "IL", "postal_code": "61820", "latitude": 40.1189773, "longitude": -88.2442721, "stars": 3.5, "review_count": 33, "is_open": 1, "attributes": {"Music": "{'dj': False, 'background_music': False, 'no_music': False, 'jukebox': False, 'live': True, 'video': False, 'karaoke': False}", "RestaurantsAttire": "u'casual'", "BestNights": "{'monday': False, 'tuesday': False, 'friday': False, 'wednesday': False, 'thursday': False, 'sunday': False, 'saturday': False}", "GoodForKids": "True", "RestaurantsReservations": "True", "GoodForMeal": "{'dessert': False, 'latenight': False, 'lunch': False, 'dinner': False, 'brunch': False, 'breakfast': False}", "RestaurantsDelivery": "True", "HasTV": "True", "BusinessParking": "{'garage': False, 'street': False, 'validated': False, 'lot': False, 'valet': False}", "Ambience": "{'touristy': False, 'hipster': False, 'romantic': False, 'divey': False, 'intimate': False, 'trendy': False, 'upscale': False, 'classy': False, 'casual': False}", "RestaurantsTakeOut": "True", "RestaurantsPriceRange2": "2", "WiFi": "u'no'", "RestaurantsGoodForGroups": "True", "BusinessAcceptsCreditCards": "True"}, "categories": "American (Traditional), Restaurants, Jazz & Blues, Music Venues, Seafood, Arts & Entertainment, Nightlife, Cocktail Bars, Dance Clubs, Bars", "hours": {"Monday": "11:0-0:0", "Tuesday": "20:0-2:0", "Wednesday": "11:0-0:0", "Thursday": "11:0-0:0", "Friday": "11:0-2:0", "Saturday": "10:0-2:0", "Sunday": "11:0-0:0"}}, {"business_id": "a9KUNRphQVLeCsC3RAEQPA", "name": "Ippatsu Salon", "address": "73 E Chester St", "city": "Champaign", "state": "IL", "postal_code": "61820", "latitude": 40.115582, "longitude": -88.239212, "stars": 4, "review_count": 50, "is_open": 1, "attributes": {"ByAppointmentOnly": "False", "RestaurantsPriceRange2": "3", "BusinessAcceptsCreditCards": "False", "BusinessParking": "{'garage': False, 'street': True, 'validated': False, 'lot': False, 'valet': False}", "GoodForKids": "False", "BikeParking": "True"}, "categories": "Hair Salons, Art Galleries, Barbers, Beauty & Spas, Shopping, Arts & Entertainment", "hours": {"Tuesday": "9:0-20:0", "Wednesday": "9:0-20:0", "Thursday": "9:0-20:0", "Friday": "9:0-20:0", "Saturday": "9:0-15:0"}}, {"business_id": "bBTJEjq5tmxNZq_9mDoPMQ", "name": "Putt Zone Fun Center", "address": "815 Dennison Dr", "city": "Champaign", "state": "IL", "postal_code": "61820", "latitude": 40.127922, "longitude": -88.25686, "stars": 4.5, "review_count": 9, "is_open": 1, "attributes": {"GoodForKids": "True", "DogsAllowed": "True", "BikeParking": "True", "BusinessParking": "{'garage': False, 'street': False, 'validated': False, 'lot': True, 'valet': False}", "BusinessAcceptsCreditCards": "True", "WheelchairAccessible": "True"}, "categories": "Batting Cages, Arts & Entertainment, Trampoline Parks, Mini Golf, Active Life, Arcades, Recreation Centers, Amusement Parks", "hours": {"Tuesday": "15:0-17:0"}}, {"business_id": "ML-C1g5YVS7CsfVb9cLwGA", "name": "Monticello Railway Museum", "address": "992 Iron Horse Pl", "city": "Monticello", "state": "IL", "postal_code": "61856", "latitude": 40.054806, "longitude": -88.559081, "stars": 5, "review_count": 6, "is_open": 1, "attributes": {"GoodForKids": "True"}, "categories": "Museums, Arts & Entertainment", "hours": {"Saturday": "10:30-17:0", "Sunday": "12:0-17:0"}}, {"business_id": "leoEzfEj27czYZEgBJdK5w", "name": "Prairie Fruits Farm & Creamery", "address": "4410 N Lincoln Ave", "city": "Champaign", "state": "IL", "postal_code": "61822", "latitude": 40.1622186, "longitude": -88.2099078, "stars": 5, "review_count": 16, "is_open": 1, "attributes": {"BusinessParking": "{'garage': False, 'street': False, 'validated': False, 'lot': True, 'valet': False}", "RestaurantsPriceRange2": "2", "Caters": "True", "BikeParking": "True", "WiFi": "u'no'", "WheelchairAccessible": "True", "RestaurantsTakeOut": "True", "DogsAllowed": "False", "BusinessAcceptsCreditCards": "True", "BusinessAcceptsBitcoin": "False", "HappyHour": "False"}, "categories": "Ice Cream & Frozen Yogurt, Cheese Shops, Farmers Market, Arts & Entertainment, Food, Specialty Food, Farms", "hours": {"Monday": "0:0-0:0", "Saturday": "13:0-16:0", "Sunday": "13:0-16:0"}}, {"business_id": "MTkjFOGtIX_dsGkTUsEjBQ", "name": "Memorial Stadium", "address": "1402 S 1st St", "city": "Champaign", "state": "IL", "postal_code": "61820", "latitude": 40.0992798, "longitude": -88.2359451, "stars": 4, "review_count": 23, "is_open": 1, "attributes": {"GoodForKids": "True"}, "categories": "Local Flavor, Stadiums & Arenas, Arts & Entertainment", "hours": null}, {"business_id": "SVXpyYPAuvJVKcfZ0nMKyg", "name": "The Canopy Club", "address": "708 S Goodwin Ave", "city": "Urbana", "state": "IL", "postal_code": "61801", "latitude": 40.1066352, "longitude": -88.2233814, "stars": 3.5, "review_count": 42, "is_open": 1, "attributes": {"BusinessAcceptsCreditCards": "True", "OutdoorSeating": "False", "BusinessParking": "{'garage': False, 'street': True, 'validated': False, 'lot': False, 'valet': False}", "Alcohol": "u'full_bar'", "RestaurantsPriceRange2": "2", "RestaurantsGoodForGroups": "True", "Ambience": "{'touristy': False, 'hipster': True, 'romantic': False, 'divey': False, 'intimate': False, 'trendy': True, 'upscale': False, 'classy': False, 'casual': True}", "GoodForKids": "False", "NoiseLevel": "u'loud'", "HasTV": "True", "BikeParking": "True", "Music": "{'dj': False, 'background_music': False, 'no_music': False, 'jukebox': False, 'live': True, 'video': False, 'karaoke': False}"}, "categories": "Music Venues, Arts & Entertainment, Nightlife", "hours": {"Monday": "20:0-2:0", "Tuesday": "20:0-2:0", "Wednesday": "20:0-2:0", "Thursday": "20:0-2:0", "Friday": "20:0-2:0", "Saturday": "20:0-2:0", "Sunday": "20:0-2:0"}}, {"business_id": "V7CbZXLAG_wg-wZfQxCZcA", "name": "Assembly Hall", "address": "1800 S 1st St", "city": "Champaign", "state": "IL", "postal_code": "61820", "latitude": 40.0965462354, "longitude": -88.2357792559, "stars": 4, "review_count": 8, "is_open": 0, "attributes": {"GoodForKids": "True"}, "categories": "Stadiums & Arenas, Arts & Entertainment", "hours": null}, {"business_id": "-V5TWGIPD8KYBr9fhq0h8Q", "name": "Krannert Art Museum", "address": "500 E Peabody Dr", "city": "Champaign", "state": "IL", "postal_code": "61820", "latitude": 40.101862, "longitude": -88.2317371, "stars": 4.5, "review_count": 12, "is_open": 1, "attributes": {"GoodForKids": "True"}, "categories": "Museums, Arts & Entertainment, Art Museums, Colleges & Universities, Education", "hours": {"Monday": "9:0-17:0", "Tuesday": "9:0-17:0", "Wednesday": "9:0-17:0", "Thursday": "9:0-21:0", "Friday": "9:0-17:0", "Saturday": "10:0-16:0"}}, {"business_id": "HgwOtz8ObpFkzfNbtewwWw", "name": "Carmike Beverly Cinema 18", "address": "910 Meijer Dr", "city": "Champaign", "state": "IL", "postal_code": "61822", "latitude": 40.147665, "longitude": -88.25957, "stars": 2.5, "review_count": 31, "is_open": 0, "attributes": {"GoodForKids": "True"}, "categories": "Cinema, Arts & Entertainment", "hours": null}, {"business_id": "hHvaXfiu__yLdO13MkVx-A", "name": "Champaign Ballet Academy", "address": "2810 W Clark Rd", "city": "Champaign", "state": "IL", "postal_code": "61822", "latitude": 40.11795, "longitude": -88.292811, "stars": 2.5, "review_count": 5, "is_open": 1, "attributes": {"GoodForKids": "True"}, "categories": "Dance Schools, Specialty Schools, Education, Middle Schools & High Schools, Elementary Schools, Performing Arts, Arts & Entertainment", "hours": null}, {"business_id": "poYE-EQTahUtKed1ElgdjA", "name": "Steam Industries", "address": "307 S Neil St", "city": "Champaign", "state": "IL", "postal_code": "61820", "latitude": 40.113384, "longitude": -88.24407, "stars": 5, "review_count": 6, "is_open": 0, "attributes": {"Smoking": "u'no'", "RestaurantsGoodForGroups": "True", "BikeParking": "True", "Ambience": "{'romantic': False, 'intimate': False, 'classy': False, 'hipster': False, 'divey': False, 'touristy': False, 'trendy': False, 'upscale': False, 'casual': False}", "Music": "{'dj': False}", "ByAppointmentOnly": "False", "Alcohol": "'none'", "DogsAllowed": "True", "OutdoorSeating": "False", "RestaurantsPriceRange2": "1", "NoiseLevel": "'average'", "HappyHour": "True", "GoodForDancing": "False", "CoatCheck": "False", "BusinessAcceptsBitcoin": "False", "BusinessAcceptsCreditCards": "True", "WheelchairAccessible": "True", "RestaurantsReservations": "True", "HasTV": "True", "BusinessParking": "{'garage': False, 'street': False, 'validated': False, 'lot': True, 'valet': False}"}, "categories": "Electronics, Nightlife, Vape Shops, Bars, Glass Blowing, Shopping, Education, Lounges, Art Classes, Hobby Shops, Tobacco Shops, Arts & Entertainment, Art Galleries, Hookah Bars, Head Shops", "hours": {"Monday": "9:0-0:0", "Tuesday": "9:0-0:0", "Wednesday": "9:0-0:0", "Thursday": "9:0-0:0", "Friday": "9:0-0:0", "Saturday": "9:0-0:0", "Sunday": "14:45-20:0"}}, {"business_id": "JbnNk6do3aHF3Kr1bX4HzQ", "name": "Jupiter's Pizzeria and Billards", "address": "2511 Village Green Pl", "city": "Champaign", "state": "IL", "postal_code": "61822", "latitude": 40.081594, "longitude": -88.296677, "stars": 3, "review_count": 91, "is_open": 1, "attributes": {"OutdoorSeating": "True", "NoiseLevel": "u'loud'", "RestaurantsGoodForGroups": "True", "WiFi": "'free'", "RestaurantsDelivery": "False", "BusinessAcceptsCreditCards": "True", "Caters": "True", "RestaurantsPriceRange2": "2", "RestaurantsTakeOut": "True", "RestaurantsAttire": "u'casual'", "RestaurantsReservations": "True", "GoodForKids": "True", "HasTV": "True", "BusinessParking": "{'garage': False, 'street': False, 'validated': False, 'lot': True, 'valet': False}", "Alcohol": "'full_bar'", "BikeParking": "True", "Ambience": "{'touristy': False, 'hipster': False, 'romantic': False, 'divey': False, 'intimate': False, 'trendy': False, 'upscale': False, 'classy': True, 'casual': True}"}, "categories": "Nightlife, Pool Halls, Restaurants, Pizza, Casinos, Arts & Entertainment, Arcades", "hours": {"Monday": "11:0-2:0", "Tuesday": "11:0-2:0", "Wednesday": "11:0-2:0", "Thursday": "11:0-2:0", "Friday": "11:0-2:0", "Saturday": "11:0-2:0", "Sunday": "11:0-2:0"}}, {"business_id": "cP8ErpZfRzdVR5Fvks-pnQ", "name": "The Pottery Place", "address": "1808 Round Barn Rd", "city": "Champaign", "state": "IL", "postal_code": "61821", "latitude": 40.1114751, "longitude": -88.2776705, "stars": 4.5, "review_count": 11, "is_open": 1, "attributes": {"GoodForKids": "True", "BusinessAcceptsCreditCards": "True", "BusinessParking": "{'garage': False, 'street': False, 'validated': False, 'lot': False, 'valet': False}"}, "categories": "Arts & Entertainment, Shopping, Arts & Crafts, Venues & Event Spaces, Event Planning & Services, Paint-Your-Own Pottery", "hours": {"Tuesday": "10:0-18:0", "Wednesday": "10:0-18:0", "Thursday": "10:0-21:0", "Friday": "10:0-21:0", "Saturday": "10:0-21:0", "Sunday": "12:0-17:0"}}, {"business_id": "5MIlBlL7mOaNY-bULd9Faw", "name": "Larry Kanfer", "address": "2103 N Dunlap Ave", "city": "Champaign", "state": "IL", "postal_code": "61820", "latitude": 40.0823802, "longitude": -88.2475956, "stars": 5, "review_count": 3, "is_open": 1, "attributes": {"ByAppointmentOnly": "False", "RestaurantsPriceRange2": "3", "BusinessParking": "{'garage': False, 'street': False, 'validated': False, 'lot': True, 'valet': False}", "BikeParking": "True", "WiFi": "u'no'", "BusinessAcceptsCreditCards": "True", "WheelchairAccessible": "True"}, "categories": "Arts & Entertainment, Shopping, Photographers, Art Galleries, Session Photography, Event Planning & Services", "hours": {"Wednesday": "10:0-17:30", "Thursday": "10:0-17:30", "Friday": "10:0-17:30", "Saturday": "10:0-17:30"}}, {"business_id": "ucBvAmB-4ZrXZctmFDyjIg", "name": "Baldwin Asylum Haunted House", "address": "2040 Lon Dr", "city": "Rantoul", "state": "IL", "postal_code": "61866", "latitude": 40.314139, "longitude": -88.128783, "stars": 4, "review_count": 5, "is_open": 1, "attributes": {"GoodForKids": "True"}, "categories": "Arts & Entertainment, Local Flavor, Haunted Houses", "hours": {"Thursday": "19:0-23:0", "Friday": "20:0-0:0", "Saturday": "20:0-0:0", "Sunday": "19:0-23:0"}}, {"business_id": "Wde8Ar4-guQU96FrNYED8g", "name": "Orpheum Children's Science Museum", "address": "346 N Neil St", "city": "Champaign", "state": "IL", "postal_code": "61820", "latitude": 40.1194691, "longitude": -88.2425055, "stars": 2.5, "review_count": 14, "is_open": 1, "attributes": {"GoodForKids": "True"}, "categories": "Education, Local Flavor, Museums, Arts & Entertainment", "hours": {"Tuesday": "10:0-16:0", "Wednesday": "10:0-16:0", "Thursday": "10:0-16:0", "Friday": "10:0-16:0", "Saturday": "13:0-17:0", "Sunday": "13:0-17:0"}}, {"business_id": "KTpi5HYUEQWmsKFhbV1wkg", "name": "Pour Bros. Taproom", "address": "40 E University Ave", "city": "Champaign", "state": "IL", "postal_code": "61820", "latitude": 40.1165803, "longitude": -88.2416303, "stars": 4.5, "review_count": 14, "is_open": 1, "attributes": {"RestaurantsTakeOut": "False", "Music": "{'dj': False, 'background_music': False, 'no_music': False, 'jukebox': False, 'live': True, 'video': False, 'karaoke': False}", "BusinessParking": "None", "BikeParking": "True", "WheelchairAccessible": "True", "HasTV": "True", "OutdoorSeating": "True", "Alcohol": "u'full_bar'", "WiFi": "u'free'", "Smoking": "u'outdoor'", "BusinessAcceptsCreditCards": "True"}, "categories": "Food, Music Venues, Brewpubs, Beer, Wine & Spirits, Bars, Breweries, Arts & Entertainment, Beer Bar, Nightlife", "hours": {"Tuesday": "15:0-0:0", "Wednesday": "15:0-0:0", "Thursday": "15:0-0:0", "Friday": "12:0-1:0", "Saturday": "12:0-1:0", "Sunday": "12:0-22:0"}}, {"business_id": "zro2Q5sOky54C_cJ176k3Q", "name": "Hanson's Auto Repair", "address": "1202 E Washington St", "city": "Urbana", "state": "IL", "postal_code": "61802", "latitude": 40.105982, "longitude": -88.194203, "stars": 3, "review_count": 4, "is_open": 1, "attributes": null, "categories": "Car Dealers, Automotive, Race Tracks, Auto Repair, Tires, Auto Parts & Supplies, Arts & Entertainment", "hours": {"Monday": "7:30-17:0", "Tuesday": "7:30-17:0", "Wednesday": "7:30-17:0", "Thursday": "7:30-17:0", "Friday": "7:30-17:0"}}, {"business_id": "nYruWLwbN1b7TcVzPoB82A", "name": "Chanute Air Museum", "address": "1011 Pacesetter Dr", "city": "Rantoul", "state": "IL", "postal_code": "61866", "latitude": 40.2950746, "longitude": -88.1514683, "stars": 4.5, "review_count": 3, "is_open": 0, "attributes": {"GoodForKids": "True"}, "categories": "Museums, Arts & Entertainment", "hours": null}, {"business_id": "Co2_TbXcGU41x0bh47ddwg", "name": "Christine Rich Studio", "address": "1402 Regency Dr W", "city": "Savoy", "state": "IL", "postal_code": "61874", "latitude": 40.0717551, "longitude": -88.2547119, "stars": 2.5, "review_count": 5, "is_open": 1, "attributes": {"GoodForKids": "True"}, "categories": "Arts & Entertainment, Performing Arts", "hours": {"Monday": "15:30-20:30", "Tuesday": "15:30-20:30", "Wednesday": "15:30-20:30", "Thursday": "15:30-20:30", "Friday": "15:30-20:30"}}, {"business_id": "RbKaSbMnvK0tc2p2UnNMwA", "name": "GQT Savoy 16 IMAX", "address": "232 W Burwash", "city": "Savoy", "state": "IL", "postal_code": "61874", "latitude": 40.0729000347, "longitude": -88.2520373409, "stars": 4, "review_count": 50, "is_open": 1, "attributes": {"GoodForKids": "True"}, "categories": "Arts & Entertainment, Cinema", "hours": {"Monday": "10:30-22:45", "Tuesday": "10:30-22:45", "Wednesday": "10:30-22:45", "Thursday": "10:30-22:45", "Friday": "10:30-0:45", "Saturday": "10:30-0:45", "Sunday": "10:30-22:45"}}, {"business_id": "FeetKVEUVCqYfMwx4FDjiQ", "name": "Spark Museum Play Cafe", "address": "142 Lincoln Square", "city": "Urbana", "state": "IL", "postal_code": "61801", "latitude": 40.1102781403, "longitude": -88.2073321876, "stars": 5, "review_count": 4, "is_open": 0, "attributes": {"RestaurantsGoodForGroups": "True", "HasTV": "False", "BusinessParking": "{'garage': False, 'street': False, 'validated': False, 'lot': False, 'valet': False}", "BusinessAcceptsCreditCards": "True", "RestaurantsReservations": "False", "GoodForKids": "True", "ByAppointmentOnly": "False", "RestaurantsTableService": "False", "RestaurantsDelivery": "False"}, "categories": "Kids Activities, Restaurants, Arts & Entertainment, Active Life, Cafes, Museums, Parks", "hours": null}, {"business_id": "TWcilg9o0HMAnXvMNwfXRg", "name": "Amara Yoga & Arts", "address": "300 S Broadway Ave, Ste 156B, Lincoln Square Village", "city": "Urbana", "state": "IL", "postal_code": "61801", "latitude": 40.110931, "longitude": -88.206257, "stars": 3.5, "review_count": 12, "is_open": 1, "attributes": {"GoodForKids": "True", "BusinessAcceptsCreditCards": "True", "BikeParking": "True", "BusinessParking": "None", "ByAppointmentOnly": "True"}, "categories": "Yoga, Art Galleries, Shopping, Fitness & Instruction, Arts & Entertainment, Active Life", "hours": {"Monday": "15:45-21:45", "Tuesday": "15:45-20:45", "Wednesday": "15:45-21:45", "Thursday": "15:45-21:45", "Friday": "14:45-19:0", "Saturday": "7:30-17:45", "Sunday": "11:45-19:45"}}, {"business_id": "b8zjLuBTk3SfqcNEMJUnDA", "name": "Fat City Saloon", "address": "505 S Chestnut St", "city": "Champaign", "state": "IL", "postal_code": "61820", "latitude": 40.110967, "longitude": -88.242733, "stars": 2.5, "review_count": 3, "is_open": 0, "attributes": {"RestaurantsGoodForGroups": "True", "Ambience": "{'romantic': False, 'intimate': False, 'touristy': False, 'hipster': False, 'divey': False, 'classy': False, 'trendy': False, 'upscale': False, 'casual': False}", "HasTV": "True", "RestaurantsTakeOut": "True", "BusinessAcceptsCreditCards": "True", "BusinessParking": "{'garage': False, 'street': False, 'validated': False, 'lot': False, 'valet': False}", "GoodForKids": "False", "Alcohol": "u'full_bar'", "RestaurantsAttire": "u'casual'", "RestaurantsPriceRange2": "1", "NoiseLevel": "u'average'", "OutdoorSeating": "True", "RestaurantsDelivery": "False"}, "categories": "American (Traditional), Arts & Entertainment, Bars, Nightlife, Music Venues, American (New), Restaurants", "hours": null}, {"business_id": "_cikN23Q9cpWHrSoeXXTGg", "name": "Ludwig Farmstead Creamery", "address": "17591 N 600 E Rd", "city": "Fithian", "state": "IL", "postal_code": "61844", "latitude": 40.1233884, "longitude": -87.8314877, "stars": 4.5, "review_count": 4, "is_open": 1, "attributes": {"BusinessAcceptsCreditCards": "True", "BusinessAcceptsBitcoin": "False", "RestaurantsPriceRange2": "1", "RestaurantsTakeOut": "True", "BikeParking": "True"}, "categories": "Specialty Food, Arts & Entertainment, Farms, Cheese Shops, Farmers Market, Food", "hours": {"Monday": "10:0-16:0", "Tuesday": "10:0-16:0", "Wednesday": "10:0-16:0", "Thursday": "10:0-16:0", "Friday": "10:0-16:0"}}]