[{"business_id": "XtdeJcmi3N3YL5en5T62Qw", "name": "Regency Beauty Institute", "address": "517 W Town Center Blvd", "city": "Champaign", "state": "IL", "postal_code": "61822", "latitude": 40.1412952, "longitude": -88.2519518, "stars": 4.5, "review_count": 3, "is_open": 0, "attributes": null, "categories": "Beauty & Spas, Hair Salons, Day Spas, Education, Specialty Schools, Cosmetology Schools", "hours": {"Monday": "9:0-16:30", "Tuesday": "9:0-16:30", "Wednesday": "9:0-16:30", "Thursday": "9:0-16:30", "Friday": "9:0-16:30"}}, {"business_id": "wPczEVoBQtfaBe9ARjgsvg", "name": "The Bike Project of Urbana-Champaign", "address": "202 S Broadway Ave, Ste 24", "city": "Urbana", "state": "IL", "postal_code": "61801", "latitude": 40.1113533407, "longitude": -88.2070030915, "stars": 4.5, "review_count": 4, "is_open": 1, "attributes": {"BusinessAcceptsCreditCards": "True", "BikeParking": "True", "BusinessParking": "{'garage': False, 'street': False, 'validated': False, 'lot': False, 'valet': False}", "RestaurantsPriceRange2": "2"}, "categories": "Thrift Stores, Shopping, Bike Repair/Maintenance, Education, Active Life, Driving Schools, Bikes, Sporting Goods, Local Services, Specialty Schools, Bike Rentals", "hours": {"Tuesday": "18:30-21:0", "Wednesday": "18:30-21:0", "Thursday": "18:30-21:0", "Sunday": "14:0-17:0"}}, {"business_id": "ci6nHJSYgf1d7-G816UBgA", "name": "Happi-Time Day Care", "address": "1010 Stratford Dr", "city": "Champaign", "state": "IL", "postal_code": "61821", "latitude": 40.1045173, "longitude": -88.2914626, "stars": 2, "review_count": 4, "is_open": 1, "attributes": {"BusinessAcceptsCreditCards": "True"}, "categories": "Local Services, Campgrounds, Elementary Schools, Education, Preschools, Middle Schools & High Schools, Child Care & Day Care, Hotels & Travel, Recreation Centers, Active Life", "hours": {"Monday": "7:0-17:30", "Tuesday": "7:0-17:30", "Wednesday": "7:0-17:30", "Thursday": "7:0-17:30", "Friday": "7:0-17:30"}}, {"business_id": "QTT_kax-2H0Am7_6fSgxwQ", "name": "Village at Colbert Park", "address": "100 Village Park Way", "city": "Savoy", "state": "IL", "postal_code": "61874", "latitude": 40.0540963, "longitude": -88.2491333, "stars": 2.5, "review_count": 23, "is_open": 1, "attributes": {"BusinessAcceptsCreditCards": "True", "ByAppointmentOnly": "False"}, "categories": "Property Management, University Housing, Home Services, Real Estate, Apartments", "hours": {"Monday": "9:0-18:0", "Tuesday": "9:0-18:0", "Wednesday": "9:0-18:0", "Thursday": "9:0-18:0", "Friday": "9:0-18:0", "Saturday": "10:0-16:0", "Sunday": "12:0-16:0"}}, {"business_id": "ImsH-N-I-I6yxATvNPSzUg", "name": "Allen Hall", "address": "1005 W Gregory Dr", "city": "Urbana", "state": "IL", "postal_code": "61803", "latitude": 40.1041097, "longitude": -88.2208505, "stars": 3.5, "review_count": 3, "is_open": 1, "attributes": {"BusinessAcceptsCreditCards": "False"}, "categories": "University Housing, Real Estate, Home Services, Apartments", "hours": null}, {"business_id": "MZ8dSU3HqlnDmS0b864Aww", "name": "Bromley Hall", "address": "910 S 3rd St", "city": "Champaign", "state": "IL", "postal_code": "61820", "latitude": 40.107113, "longitude": -88.2348985, "stars": 3, "review_count": 4, "is_open": 1, "attributes": {"ByAppointmentOnly": "False"}, "categories": "University Housing, Home Services, Real Estate", "hours": null}, {"business_id": "VhD5tnJyAFluITueS3-H3g", "name": "Chesterbrook Academy Preschool", "address": "2001 S Oak St, Ste A", "city": "Champaign", "state": "IL", "postal_code": "61820", "latitude": 40.0900913, "longitude": -88.2414855, "stars": 5, "review_count": 4, "is_open": 1, "attributes": null, "categories": "Child Care & Day Care, Elementary Schools, Education, Preschools, Local Services", "hours": {"Monday": "6:30-18:0", "Tuesday": "6:30-18:0", "Wednesday": "6:30-18:0", "Thursday": "6:30-18:0", "Friday": "6:30-18:0"}}, {"business_id": "ZIfL-jyfc2y-puyq3Rrndg", "name": "309 Green", "address": "309 E. Green Suite 103, Ste 103", "city": "Champaign", "state": "IL", "postal_code": "61820", "latitude": 40.110187, "longitude": -88.233819, "stars": 1, "review_count": 3, "is_open": 1, "attributes": {"BusinessAcceptsCreditCards": "True", "ByAppointmentOnly": "False"}, "categories": "Apartments, Home Services, University Housing, Real Estate", "hours": {"Monday": "9:0-18:0", "Tuesday": "9:0-18:0", "Wednesday": "9:0-18:0", "Thursday": "9:0-18:0", "Friday": "9:0-18:0", "Saturday": "10:0-16:0", "Sunday": "12:0-16:0"}}, {"business_id": "ZiLOXVloAOtr9_cpQTpr8g", "name": "University of Illinois", "address": "605 E Springfield Ave", "city": "Champaign", "state": "IL", "postal_code": "61820", "latitude": 40.1124685, "longitude": -88.22988, "stars": 4, "review_count": 59, "is_open": 1, "attributes": null, "categories": "Education, Colleges & Universities", "hours": null}, {"business_id": "fsBAaw7xwHWB78HRSWwQEQ", "name": "The Spice Box", "address": "905 S Goodwin Ave", "city": "Urbana", "state": "IL", "postal_code": "61801", "latitude": 40.1049315, "longitude": -88.224759, "stars": 4, "review_count": 4, "is_open": 1, "attributes": {"RestaurantsPriceRange2": "2", "Caters": "False", "BikeParking": "True", "BusinessParking": "{'garage': False, 'street': False, 'validated': False, 'lot': False, 'valet': False}", "OutdoorSeating": "False", "NoiseLevel": "u'average'", "RestaurantsTableService": "True", "Alcohol": "u'beer_and_wine'", "RestaurantsGoodForGroups": "True", "WiFi": "u'free'", "RestaurantsReservations": "True", "HasTV": "False", "GoodForKids": "True", "Ambience": "{'romantic': False, 'intimate': False, 'classy': False, 'hipster': False, 'divey': False, 'touristy': False, 'trendy': False, 'upscale': False, 'casual': False}", "BusinessAcceptsCreditCards": "True", "GoodForMeal": "{'dessert': False, 'latenight': False, 'lunch': False, 'dinner': False, 'brunch': False, 'breakfast': False}", "RestaurantsAttire": "u'dressy'", "RestaurantsDelivery": "False"}, "categories": "Food, Ethnic Food, Specialty Food, Colleges & Universities, Restaurants, Imported Food, Education", "hours": null}, {"business_id": "9p8gMGyJf577HaTGnrckNw", "name": "Crystal Lake Family Aquatic Center", "address": "1401 N Broadway", "city": "Urbana", "state": "IL", "postal_code": "61801", "latitude": 40.125110848, "longitude": -88.208910972, "stars": 2.5, "review_count": 3, "is_open": 1, "attributes": null, "categories": "Recreation Centers, Education, Fitness & Instruction, Active Life, Aquariums, Swimming Lessons/Schools, Swimming Pools, Specialty Schools", "hours": null}, {"business_id": "EOHjpO4XFAhhSgJUECEJ5Q", "name": "The Pointe at U of I", "address": "1601 E Florida Ave", "city": "Urbana", "state": "IL", "postal_code": "61802", "latitude": 40.097854, "longitude": -88.1891526, "stars": 1.5, "review_count": 7, "is_open": 1, "attributes": {"BusinessAcceptsCreditCards": "False"}, "categories": "Apartments, University Housing, Real Estate, Home Services", "hours": {"Monday": "9:0-19:0", "Tuesday": "9:0-19:0", "Wednesday": "9:0-19:0", "Thursday": "9:0-19:0", "Friday": "9:0-19:0", "Saturday": "10:0-16:0", "Sunday": "12:0-16:0"}}, {"business_id": "Y2eNTpotBGboB2Q4ocG-JQ", "name": "Parkland College Institute of Aviation", "address": "1 Airport Rd", "city": "Savoy", "state": "IL", "postal_code": "61874", "latitude": 40.040101331, "longitude": -88.2707777424, "stars": 4, "review_count": 5, "is_open": 1, "attributes": {"BusinessAcceptsCreditCards": "True"}, "categories": "Active Life, Public Services & Government, Hot Air Balloons, Sports Clubs, Landmarks & Historical Buildings, Elementary Schools, Education, Middle Schools & High Schools, Flight Instruction, Specialty Schools, Adult Education, Colleges & Universities", "hours": {"Monday": "7:0-22:0", "Tuesday": "7:0-22:0", "Wednesday": "7:0-22:0", "Thursday": "7:0-22:0", "Friday": "7:0-22:0", "Saturday": "7:0-16:0"}}, {"business_id": "UEsFV-zCAL_E_DTv-wGzfw", "name": "Illini Tower", "address": "409 E Chalmers St", "city": "Champaign", "state": "IL", "postal_code": "61820", "latitude": 40.106469, "longitude": -88.232343, "stars": 2.5, "review_count": 12, "is_open": 1, "attributes": {"ByAppointmentOnly": "False", "BusinessAcceptsCreditCards": "True"}, "categories": "Real Estate, Home Services, Apartments, University Housing", "hours": {"Monday": "8:0-17:0", "Tuesday": "8:0-17:0", "Wednesday": "8:0-17:0", "Thursday": "8:0-17:0", "Friday": "8:0-17:0"}}, {"business_id": "lOwupzLBQ82_RkFCLDsr2w", "name": "Centennial High School", "address": "913 Crescent Dr", "city": "Champaign", "state": "IL", "postal_code": "61821", "latitude": 40.1061851, "longitude": -88.2824583, "stars": 1.5, "review_count": 3, "is_open": 1, "attributes": null, "categories": "Education, Middle Schools & High Schools, Elementary Schools", "hours": null}, {"business_id": "Tw7yZdXV1ktAUXkNGAtTvA", "name": "Windsor West Apartments", "address": "2502 Fields S Dr", "city": "Champaign", "state": "IL", "postal_code": "61822", "latitude": 40.0818554, "longitude": -88.3084213, "stars": 4.5, "review_count": 5, "is_open": 1, "attributes": {"BusinessAcceptsCreditCards": "True"}, "categories": "University Housing, Apartments, Real Estate, Property Management, Home Services", "hours": {"Monday": "0:0-0:0", "Tuesday": "9:0-18:0", "Wednesday": "9:0-18:0", "Thursday": "9:0-18:0", "Friday": "9:0-18:0", "Saturday": "10:0-14:0"}}, {"business_id": "SvTGVH4ZLuIsQCqoul3utQ", "name": "The Tower at Third", "address": "302 E. John St., Suite 100, Ste 100", "city": "Champaign", "state": "IL", "postal_code": "61820", "latitude": 40.1093134, "longitude": -88.2348478, "stars": 3, "review_count": 5, "is_open": 1, "attributes": null, "categories": "University Housing, Real Estate, Home Services, Apartments", "hours": {"Monday": "9:0-18:0", "Tuesday": "9:0-18:0", "Wednesday": "9:0-18:0", "Thursday": "9:0-18:0", "Friday": "9:0-18:0", "Saturday": "10:0-16:0", "Sunday": "12:0-16:0"}}, {"business_id": "9JQF2noQKkLrkMzpidAxqw", "name": "ONE South - The Scion Group", "address": "1321 N Lincoln Ave", "city": "Urbana", "state": "IL", "postal_code": "61801", "latitude": 40.1248566, "longitude": -88.2211518, "stars": 2, "review_count": 8, "is_open": 0, "attributes": null, "categories": "University Housing, Apartments, Property Management, Real Estate, Home Services", "hours": {"Monday": "8:30-18:0", "Tuesday": "8:30-18:0", "Wednesday": "8:30-18:0", "Thursday": "8:30-18:0", "Friday": "8:30-18:0", "Saturday": "10:0-17:0", "Sunday": "12:0-17:0"}}, {"business_id": "tKcagQ6JNkMtayvBVHwY9w", "name": "Japan House", "address": "2000 S Lincoln Ave", "city": "Urbana", "state": "IL", "postal_code": "61801", "latitude": 40.0927651, "longitude": -88.2178875, "stars": 4.5, "review_count": 9, "is_open": 1, "attributes": {"GoodForKids": "True"}, "categories": "Specialty Schools, Art Schools, Education, Arts & Entertainment, Educational Services, Botanical Gardens", "hours": null}, {"business_id": "oNRBwIyojAF-3uLIqQLc_w", "name": "Campustown Rentals", "address": "309 E. Green Suite 103, Ste 103", "city": "Champaign", "state": "IL", "postal_code": "61820", "latitude": 40.110187, "longitude": -88.233819, "stars": 1, "review_count": 15, "is_open": 1, "attributes": {"BusinessAcceptsCreditCards": "True", "ByAppointmentOnly": "False"}, "categories": "Apartments, Home Services, Property Management, University Housing, Real Estate", "hours": {"Monday": "9:0-18:0", "Tuesday": "9:0-18:0", "Wednesday": "9:0-18:0", "Thursday": "9:0-18:0", "Friday": "9:0-18:0", "Saturday": "10:0-16:0", "Sunday": "12:0-16:0"}}, {"business_id": "WRKx0zCz02BClqSg0WYobg", "name": "CU Music Lessons", "address": "2403 W Springfield Ave", "city": "Champaign", "state": "IL", "postal_code": "61821", "latitude": 40.112624, "longitude": -88.2866949, "stars": 5, "review_count": 3, "is_open": 1, "attributes": {"BusinessParking": "{'garage': False, 'street': False, 'validated': False, 'lot': False, 'valet': False}", "BikeParking": "True", "BusinessAcceptsCreditCards": "True", "RestaurantsPriceRange2": "1", "WheelchairAccessible": "False"}, "categories": "Education, Private Tutors, Shopping, Musical Instruments & Teachers", "hours": {"Monday": "9:0-21:0", "Tuesday": "9:0-21:0", "Wednesday": "9:0-21:0", "Thursday": "9:0-21:0", "Friday": "9:0-21:0"}}, {"business_id": "B2hnhxgCO-a919tfem6yIQ", "name": "Illini Union", "address": "1401 W Green St", "city": "Urbana", "state": "IL", "postal_code": "61801", "latitude": 40.1097607448, "longitude": -88.2272078138, "stars": 4.5, "review_count": 15, "is_open": 1, "attributes": {"RestaurantsPriceRange2": "1", "BusinessAcceptsCreditCards": "True", "GoodForKids": "True", "BikeParking": "True", "BusinessParking": "{'garage': False, 'street': False, 'validated': False, 'lot': False, 'valet': False}"}, "categories": "Bookstores, Arts & Entertainment, Education, Shopping, Books, Mags, Music & Video, Active Life, Bowling, Colleges & Universities, Social Clubs", "hours": null}, {"business_id": "brIWUjIWqi9DaJYkf2Fg3w", "name": "901 Western", "address": "901 Western Ave", "city": "Urbana", "state": "IL", "postal_code": "61801", "latitude": 40.1121629, "longitude": -88.2198791, "stars": 2.5, "review_count": 6, "is_open": 1, "attributes": {"BusinessAcceptsBitcoin": "False", "BusinessAcceptsCreditCards": "True", "WheelchairAccessible": "True", "ByAppointmentOnly": "False"}, "categories": "Home Services, Real Estate, Apartments, University Housing, Property Management", "hours": {"Monday": "0:0-0:0", "Tuesday": "9:0-18:0", "Wednesday": "9:0-18:0", "Thursday": "9:0-18:0", "Friday": "9:0-18:0", "Saturday": "10:0-16:0", "Sunday": "12:0-16:0"}}, {"business_id": "fFfmVZOVHRA_TPXVAUmj9A", "name": "Kennedy Wilson Properties", "address": "312 W Springfield Ave, Ste 100", "city": "Urbana", "state": "IL", "postal_code": "61801", "latitude": 40.112391, "longitude": -88.2116807, "stars": 2, "review_count": 14, "is_open": 1, "attributes": {"BusinessAcceptsBitcoin": "False", "BusinessAcceptsCreditCards": "True", "ByAppointmentOnly": "False"}, "categories": "Property Management, Apartments, Home Services, Real Estate, Real Estate Services, University Housing", "hours": {"Monday": "9:0-18:0", "Tuesday": "9:0-18:0", "Wednesday": "9:0-18:0", "Thursday": "9:0-18:0", "Friday": "9:0-18:0", "Saturday": "10:0-15:0"}}, {"business_id": "Lou0gX3Q_PAWV6n6vsrt1w", "name": "Montessori School of Champaign-Urbana", "address": "1403 Regency Dr E", "city": "Savoy", "state": "IL", "postal_code": "61874", "latitude": 40.0723459, "longitude": -88.2540655, "stars": 5, "review_count": 4, "is_open": 1, "attributes": {"BusinessAcceptsCreditCards": "True"}, "categories": "Montessori Schools, Preschools, Elementary Schools, Education, Child Care & Day Care, Middle Schools & High Schools, Local Services", "hours": {"Monday": "7:30-17:30", "Tuesday": "7:30-17:30", "Wednesday": "7:30-17:30", "Thursday": "7:30-17:30", "Friday": "7:30-17:30"}}, {"business_id": "MhmF2-I7rrGITX7pXQJJEA", "name": "Tricoci University of Beauty Culture", "address": "202 E University Ave", "city": "Urbana", "state": "IL", "postal_code": "61801", "latitude": 40.1177488303, "longitude": -88.206114969, "stars": 4.5, "review_count": 3, "is_open": 1, "attributes": {"HairSpecializesIn": "{'straightperms': True, 'coloring': True, 'extensions': False, 'africanamerican': True, 'curly': True, 'kids': True, 'perms': True, 'asian': True}", "ByAppointmentOnly": "False", "WheelchairAccessible": "True", "BusinessParking": "{'garage': False, 'street': False, 'validated': False, 'lot': False, 'valet': False}", "GoodForKids": "True", "RestaurantsPriceRange2": "1", "BusinessAcceptsCreditCards": "True"}, "categories": "Nail Salons, Specialty Schools, Cosmetology Schools, Education, Beauty & Spas, Hair Salons", "hours": {"Monday": "0:0-0:0", "Tuesday": "9:30-16:30", "Wednesday": "9:0-14:0", "Thursday": "9:0-14:0", "Friday": "9:0-14:0", "Saturday": "9:30-16:30"}}, {"business_id": "8ziRUCsWuXA6iyGXWqTG7g", "name": "C U Woodshop Supply", "address": "1401 Parkland Ct", "city": "Champaign", "state": "IL", "postal_code": "61821", "latitude": 40.1289477, "longitude": -88.2803959, "stars": 5, "review_count": 3, "is_open": 1, "attributes": {"BusinessParking": "{'garage': False, 'street': False, 'validated': False, 'lot': False, 'valet': False}", "BusinessAcceptsCreditCards": "True"}, "categories": "Shopping, Educational Services, Home & Garden, Hobby Shops, Education, Hardware Stores", "hours": {"Monday": "9:0-18:0", "Tuesday": "9:0-18:0", "Wednesday": "9:0-18:0", "Thursday": "9:0-18:0", "Friday": "9:0-18:0", "Saturday": "9:0-15:0"}}, {"business_id": "GY7N2o1SGIUgSz1WCIo-HQ", "name": "88 West Apartments", "address": "2001 N Moreland Blvd", "city": "Champaign", "state": "IL", "postal_code": "61822", "latitude": 40.14008, "longitude": -88.252512, "stars": 1.5, "review_count": 3, "is_open": 1, "attributes": {"BusinessAcceptsCreditCards": "False"}, "categories": "Real Estate, Self Storage, Apartments, University Housing, Home Services, Local Services", "hours": {"Monday": "9:0-18:0", "Tuesday": "9:0-18:0", "Wednesday": "9:0-18:0", "Thursday": "9:0-18:0", "Friday": "9:0-18:0", "Saturday": "10:0-18:0"}}, {"business_id": "RGTJA3fCkTp1rSbLAAR8RA", "name": "First United Methodist Child Care Center", "address": "210 W Church St", "city": "Champaign", "state": "IL", "postal_code": "61820", "latitude": 40.1185347, "longitude": -88.2463977, "stars": 5, "review_count": 3, "is_open": 1, "attributes": {"BusinessAcceptsCreditCards": "False"}, "categories": "Local Services, Child Care & Day Care, Elementary Schools, Preschools, Education", "hours": null}, {"business_id": "7PH-QDcIpI9-L_LISkLkjg", "name": "Art In Motion Dance Studio", "address": "4010 Colleen Dr", "city": "Champaign", "state": "IL", "postal_code": "61822", "latitude": 40.1092057, "longitude": -88.3111364, "stars": 4.5, "review_count": 3, "is_open": 1, "attributes": {"GoodForKids": "True", "ByAppointmentOnly": "False", "BusinessAcceptsCreditCards": "True", "BusinessParking": "{'garage': False, 'street': False, 'validated': False, 'lot': False, 'valet': False}"}, "categories": "Education, Active Life, Dance Studios, Dance Schools, Fitness & Instruction, Arts & Entertainment, Performing Arts, Specialty Schools", "hours": {"Monday": "12:0-20:0", "Tuesday": "12:0-20:0", "Wednesday": "12:0-20:0", "Thursday": "12:0-20:0"}}, {"business_id": "Fm8NjfeWu8sxdvziDDRBtA", "name": "Devonshire KinderCare", "address": "410 Devonshire Dr", "city": "Champaign", "state": "IL", "postal_code": "61820", "latitude": 40.090227, "longitude": -88.250038, "stars": 4, "review_count": 3, "is_open": 1, "attributes": {"BusinessAcceptsCreditCards": "True"}, "categories": "Child Care & Day Care, Preschools, Elementary Schools, Local Services, Education", "hours": {"Monday": "0:0-0:0", "Tuesday": "6:30-18:0", "Wednesday": "6:30-18:0", "Thursday": "6:30-18:0", "Friday": "6:30-18:0"}}, {"business_id": "zGQNQUpKLnjFsgXg3GSQqQ", "name": "Regent Ballroom & Banquet Center", "address": "1406 Regency Dr W", "city": "Savoy", "state": "IL", "postal_code": "61874", "latitude": 40.072363, "longitude": -88.25474, "stars": 4.5, "review_count": 6, "is_open": 1, "attributes": {"BusinessAcceptsCreditCards": "True"}, "categories": "Specialty Schools, Dance Schools, Adult Education, Dance Clubs, Education, Venues & Event Spaces, Nightlife, Arts & Entertainment, Shopping, Wedding Planning, Party Supplies, Party & Event Planning, Event Planning & Services, Performing Arts, Bridal", "hours": {"Monday": "13:0-17:0", "Tuesday": "13:0-17:0", "Wednesday": "13:0-17:0", "Thursday": "13:0-17:0", "Friday": "13:0-17:0"}}, {"business_id": "XAR5EVxxPmHzbzxeGXEsJw", "name": "La Petite Academy of Champaign", "address": "1713 Broadmoor  ", "city": "Champaign", "state": "IL", "postal_code": "61821", "latitude": 40.0935165, "longitude": -88.2753904, "stars": 5, "review_count": 3, "is_open": 1, "attributes": null, "categories": "Child Care & Day Care, Elementary Schools, Preschools, Local Services, Education, Tutoring Centers", "hours": {"Monday": "6:30-18:0", "Tuesday": "6:30-18:0", "Wednesday": "6:30-18:0", "Thursday": "6:30-18:0", "Friday": "6:30-18:0"}}, {"business_id": "Es_hknhOiXRLlkcc_UJJzg", "name": "Lofts54", "address": "309 E. Green Suite 103, Ste 103", "city": "Champaign", "state": "IL", "postal_code": "61820", "latitude": 40.110187, "longitude": -88.233819, "stars": 3, "review_count": 4, "is_open": 1, "attributes": null, "categories": "University Housing, Real Estate, Home Services, Apartments", "hours": {"Monday": "9:0-18:0", "Tuesday": "9:0-18:0", "Wednesday": "9:0-18:0", "Thursday": "9:0-18:0", "Friday": "9:0-18:0", "Saturday": "10:0-16:0", "Sunday": "12:0-16:0"}}, {"business_id": "-V5TWGIPD8KYBr9fhq0h8Q", "name": "Krannert Art Museum", "address": "500 E Peabody Dr", "city": "Champaign", "state": "IL", "postal_code": "61820", "latitude": 40.101862, "longitude": -88.2317371, "stars": 4.5, "review_count": 12, "is_open": 1, "attributes": {"GoodForKids": "True"}, "categories": "Museums, Arts & Entertainment, Art Museums, Colleges & Universities, Education", "hours": {"Monday": "9:0-17:0", "Tuesday": "9:0-17:0", "Wednesday": "9:0-17:0", "Thursday": "9:0-21:0", "Friday": "9:0-17:0", "Saturday": "10:0-16:0"}}, {"business_id": "hHvaXfiu__yLdO13MkVx-A", "name": "Champaign Ballet Academy", "address": "2810 W Clark Rd", "city": "Champaign", "state": "IL", "postal_code": "61822", "latitude": 40.11795, "longitude": -88.292811, "stars": 2.5, "review_count": 5, "is_open": 1, "attributes": {"GoodForKids": "True"}, "categories": "Dance Schools, Specialty Schools, Education, Middle Schools & High Schools, Elementary Schools, Performing Arts, Arts & Entertainment", "hours": null}, {"business_id": "wKcRjDze6tozbC0kNSruYQ", "name": "Acre Hill Veterinary Clinic", "address": "608 W Champaign Ave", "city": "Rantoul", "state": "IL", "postal_code": "61866", "latitude": 40.3087609, "longitude": -88.169645, "stars": 1, "review_count": 3, "is_open": 1, "attributes": null, "categories": "Education, Specialty Schools, Cosmetology Schools, Pet Sitting, Pets, Veterinarians, Pet Services", "hours": {"Monday": "13:0-18:0", "Tuesday": "13:0-18:0", "Wednesday": "13:0-18:0", "Thursday": "13:0-18:0", "Friday": "13:0-18:0", "Saturday": "9:0-12:0"}}, {"business_id": "D5quwbQTguD4hqMAEARnBg", "name": "University of Illinois Veterinary Teaching Hospital", "address": "1008 W Hazelwood Dr", "city": "Urbana", "state": "IL", "postal_code": "61802", "latitude": 40.091881, "longitude": -88.222744, "stars": 3.5, "review_count": 32, "is_open": 1, "attributes": {"WiFi": "u'free'"}, "categories": "Colleges & Universities, Education, Pets, Veterinarians", "hours": {"Monday": "0:0-0:0", "Tuesday": "0:0-0:0", "Wednesday": "0:0-0:0", "Thursday": "0:0-0:0", "Friday": "0:0-0:0", "Saturday": "0:0-0:0", "Sunday": "0:0-0:0"}}, {"business_id": "8GShNsQcrXm3lRuO5m3yNw", "name": "Burnham 310", "address": "310 E Springfield Ave", "city": "Champaign", "state": "IL", "postal_code": "61820", "latitude": 40.11285, "longitude": -88.234833, "stars": 1.5, "review_count": 19, "is_open": 1, "attributes": {"BusinessAcceptsCreditCards": "None"}, "categories": "Real Estate, Home Services, Apartments, University Housing", "hours": {"Monday": "10:0-18:0", "Tuesday": "10:0-18:0", "Wednesday": "10:0-18:0", "Thursday": "10:0-18:0", "Friday": "10:0-18:0", "Saturday": "10:0-18:0", "Sunday": "13:0-17:0"}}, {"business_id": "FsRYheupb38V0_JRD-u2Bg", "name": "Roland Realty", "address": "901 S 1st St", "city": "Champaign", "state": "IL", "postal_code": "61820", "latitude": 40.1076565, "longitude": -88.2390825, "stars": 3, "review_count": 12, "is_open": 1, "attributes": {"ByAppointmentOnly": "False", "BusinessAcceptsCreditCards": "True"}, "categories": "University Housing, Apartments, Real Estate, Property Management, Real Estate Services, Home Services", "hours": {"Monday": "9:0-17:0", "Tuesday": "9:0-17:0", "Wednesday": "9:0-17:0", "Thursday": "9:0-17:0", "Friday": "9:0-17:0", "Saturday": "0:0-16:0"}}, {"business_id": "poYE-EQTahUtKed1ElgdjA", "name": "Steam Industries", "address": "307 S Neil St", "city": "Champaign", "state": "IL", "postal_code": "61820", "latitude": 40.113384, "longitude": -88.24407, "stars": 5, "review_count": 6, "is_open": 0, "attributes": {"Smoking": "u'no'", "RestaurantsGoodForGroups": "True", "BikeParking": "True", "Ambience": "{'romantic': False, 'intimate': False, 'classy': False, 'hipster': False, 'divey': False, 'touristy': False, 'trendy': False, 'upscale': False, 'casual': False}", "Music": "{'dj': False}", "ByAppointmentOnly": "False", "Alcohol": "'none'", "DogsAllowed": "True", "OutdoorSeating": "False", "RestaurantsPriceRange2": "1", "NoiseLevel": "'average'", "HappyHour": "True", "GoodForDancing": "False", "CoatCheck": "False", "BusinessAcceptsBitcoin": "False", "BusinessAcceptsCreditCards": "True", "WheelchairAccessible": "True", "RestaurantsReservations": "True", "HasTV": "True", "BusinessParking": "{'garage': False, 'street': False, 'validated': False, 'lot': True, 'valet': False}"}, "categories": "Electronics, Nightlife, Vape Shops, Bars, Glass Blowing, Shopping, Education, Lounges, Art Classes, Hobby Shops, Tobacco Shops, Arts & Entertainment, Art Galleries, Hookah Bars, Head Shops", "hours": {"Monday": "9:0-0:0", "Tuesday": "9:0-0:0", "Wednesday": "9:0-0:0", "Thursday": "9:0-0:0", "Friday": "9:0-0:0", "Saturday": "9:0-0:0", "Sunday": "14:45-20:0"}}, {"business_id": "bAFgHFzpG_raPPGZgDCw4g", "name": "Betsy's Bistro Mobile", "address": "", "city": "Urbana", "state": "IL", "postal_code": "61801", "latitude": 40.1324437, "longitude": -88.2173213, "stars": 4.5, "review_count": 5, "is_open": 1, "attributes": {"GoodForMeal": "{'dessert': False, 'latenight': False, 'lunch': False, 'dinner': False, 'brunch': False, 'breakfast': False}", "GoodForKids": "True", "RestaurantsTakeOut": "False", "RestaurantsDelivery": "False", "BusinessAcceptsCreditCards": "True", "WheelchairAccessible": "True", "RestaurantsPriceRange2": "1", "Caters": "True", "BusinessParking": "None", "BusinessAcceptsBitcoin": "False", "Alcohol": "u'none'", "BikeParking": "True"}, "categories": "Food, Food Trucks, University Housing, Real Estate, Home Services, Event Planning & Services, Caterers", "hours": {"Tuesday": "16:0-19:0", "Wednesday": "11:0-14:0", "Thursday": "11:0-14:0", "Friday": "11:0-14:0", "Saturday": "7:0-12:0"}}, {"business_id": "3Sstn_TJAopMb6StUy09ow", "name": "Faith Church of Urbana", "address": "2111 N Willow Rd", "city": "Urbana", "state": "IL", "postal_code": "61801", "latitude": 40.134198, "longitude": -88.201062, "stars": 4, "review_count": 4, "is_open": 1, "attributes": null, "categories": "Education, Elementary Schools, Middle Schools & High Schools, Churches, Religious Organizations", "hours": {"Wednesday": "19:0-20:30", "Thursday": "19:0-20:30", "Sunday": "6:0-20:0"}}, {"business_id": "gGAsJk5XfP6qYpgezTCQdQ", "name": "HERE Champaign", "address": "308 E Green St", "city": "Champaign", "state": "IL", "postal_code": "61820", "latitude": 40.110503, "longitude": -88.234227, "stars": 3.5, "review_count": 3, "is_open": 1, "attributes": {"BusinessAcceptsCreditCards": "True", "ByAppointmentOnly": "False", "BusinessAcceptsBitcoin": "False"}, "categories": "Home Services, University Housing, Real Estate", "hours": {"Monday": "9:0-19:0", "Tuesday": "9:0-19:0", "Wednesday": "9:0-19:0", "Thursday": "9:0-19:0", "Friday": "9:0-19:0", "Saturday": "10:0-17:0", "Sunday": "12:0-17:0"}}, {"business_id": "Wde8Ar4-guQU96FrNYED8g", "name": "Orpheum Children's Science Museum", "address": "346 N Neil St", "city": "Champaign", "state": "IL", "postal_code": "61820", "latitude": 40.1194691, "longitude": -88.2425055, "stars": 2.5, "review_count": 14, "is_open": 1, "attributes": {"GoodForKids": "True"}, "categories": "Education, Local Flavor, Museums, Arts & Entertainment", "hours": {"Tuesday": "10:0-16:0", "Wednesday": "10:0-16:0", "Thursday": "10:0-16:0", "Friday": "10:0-16:0", "Saturday": "13:0-17:0", "Sunday": "13:0-17:0"}}, {"business_id": "jDlvFXuxis4rC2NcWQbqig", "name": "Thomas M. Siebel Center for Computer Science", "address": "201 N Goodwin Ave", "city": "Urbana", "state": "IL", "postal_code": "61801", "latitude": 40.1138194, "longitude": -88.2250361, "stars": 5, "review_count": 5, "is_open": 1, "attributes": null, "categories": "Education, Colleges & Universities", "hours": null}, {"business_id": "IcdnMjdSse8j2KcnABWd_A", "name": "Hugs & Bugs", "address": "127 W Washington St", "city": "Philo", "state": "IL", "postal_code": "61864", "latitude": 40.007093, "longitude": -88.15849, "stars": 3.5, "review_count": 3, "is_open": 1, "attributes": {"BusinessAcceptsCreditCards": "False"}, "categories": "Child Care & Day Care, Local Services, Preschools, Education", "hours": {"Monday": "7:0-17:30", "Tuesday": "7:0-17:30", "Wednesday": "7:0-17:30", "Thursday": "7:0-17:30", "Friday": "7:0-17:30"}}, {"business_id": "lEfDbMH4ON41L2ByGALx9g", "name": "The Music Shoppe", "address": "27 E Marketview Dr", "city": "Champaign", "state": "IL", "postal_code": "61820", "latitude": 40.13741, "longitude": -88.241218, "stars": 3, "review_count": 5, "is_open": 1, "attributes": {"RestaurantsPriceRange2": "1", "BusinessAcceptsCreditCards": "True", "BikeParking": "True", "WheelchairAccessible": "True", "BusinessAcceptsBitcoin": "False", "BusinessParking": "{'garage': False, 'street': False, 'validated': False, 'lot': True, 'valet': False}"}, "categories": "Guitar Stores, Piano Stores, Local Services, Music & DVDs, Electronics, Shopping, Education, Books, Mags, Music & Video, Specialty Schools, Musical Instruments & Teachers, Musical Instrument Services", "hours": {"Monday": "0:0-0:0", "Tuesday": "10:0-19:0", "Wednesday": "10:0-19:0", "Thursday": "10:0-19:0", "Friday": "10:0-18:0", "Saturday": "10:0-17:0"}}, {"business_id": "AqzK7Dr-9zMoxBpsZNlkoA", "name": "University High School", "address": "1212 W Springfield Ave", "city": "Urbana", "state": "IL", "postal_code": "61801", "latitude": 40.1130426, "longitude": -88.2252253, "stars": 4.5, "review_count": 3, "is_open": 1, "attributes": null, "categories": "Education, Middle Schools & High Schools, Elementary Schools", "hours": null}]